City_ID,City,Country,Max Temp,Current Description,Lat,Lng,Hotel Name
7,Mahebourg,MU,70.09,light rain,-20.4081,57.7,Shandrani Beachcomber Resort & Spa
10,Albany,US,72.25,few clouds,42.6001,-73.9662,
19,Kapaa,US,87.78,clear sky,22.0752,-159.319,Sheraton Kauai Coconut Beach Resort
20,Itarema,BR,75.97,clear sky,-2.9248,-39.9167,"Sea Lounge! Bar, Club & Restaurant"
26,Vaini,TO,73.56,scattered clouds,-21.2,-175.2,Keleti Beach Resort
27,Vila Franca Do Campo,PT,73.81,broken clouds,37.7167,-25.4333,Pestana Bahia Praia
28,Mount Isa,AU,76.77,clear sky,-20.7333,139.5,ibis Styles Mt Isa Verona
32,Salalah,OM,77.09,light intensity drizzle,17.0151,54.0924,HAMDAN PLAZA HOTEL SALALAH
33,Dingle,PH,84.24,light rain,10.9995,122.6711,SEGAYA PROPERTY
34,Rikitea,PF,74.66,clear sky,-23.1203,-134.9692,People ThankYou
38,Mareeba,AU,72.45,scattered clouds,-17.0,145.4333,Trinity Plains Tourist Park
42,Vaitape,PF,79.03,clear sky,-16.5167,-151.75,Conrad Bora Bora Nui
44,Kapit,MY,75.25,overcast clouds,2.0167,112.9333,Hotel Meligai Kapit
45,Noumea,NC,75.18,overcast clouds,-22.2763,166.4572,Hôtel Le Lagon
46,Ballina,AU,72.79,scattered clouds,-28.8667,153.5667,Ramada Hotel & Suites by Wyndham Ballina Byron
49,Butaritari,KI,82.31,overcast clouds,3.0707,172.7902,Isles Sunset Lodge
51,Shimanovsk,RU,74.71,clear sky,52.0,127.7,Гостиница Домашняя
55,Hilo,US,83.93,clear sky,19.7297,-155.09,Hilo Hawaiian Hotel
56,Moerai,PF,73.18,clear sky,-22.4333,-151.3333,Le Manotel
57,Bambous Virieux,MU,70.05,light rain,-20.3428,57.7575,Casa Tia Villa
59,Pangai,TO,75.31,few clouds,-19.8,-174.35,Ha'apai Beach Resort
61,Ribeira Grande,PT,71.67,overcast clouds,38.5167,-28.7,Quinta da Meia Eira
64,San Quintin,MX,74.01,few clouds,30.4833,-115.95,Don Eddie's Sport Fishing Center
65,Pringsewu,ID,77.09,light rain,-5.3582,104.9744,Urban Style by Front One
66,Grand Gaube,MU,70.2,overcast clouds,-20.0064,57.6608,Veranda Paul et Virginie Hotel & Spa
68,Bonfim,BR,73.62,overcast clouds,3.0833,-59.95,
71,Souillac,MU,70.18,light rain,-20.5167,57.5167,Shanti Maurice Resort & Spa
72,Torbay,CA,72.75,overcast clouds,47.6666,-52.7314,Gallows Cove
73,Georgetown,MY,78.89,few clouds,5.4112,100.3354,Cititel Penang
74,Altamira,BR,75.72,broken clouds,-3.2033,-52.2064,Requinte Hotel
75,Banda Aceh,ID,77.5,overcast clouds,5.5577,95.3222,Sulthan Hotel International
78,Vence,FR,77.02,clear sky,43.7216,7.1123,Hôtel La Victoire
80,Kalmunai,LK,79.2,overcast clouds,7.4167,81.8167,VS Villa
81,Mantua,IT,79.84,clear sky,45.1667,10.7833,Hotel la Favorita
83,Tomatlan,MX,82.65,clear sky,19.9333,-105.25,El Salvial
84,Kasongo,CD,74.28,overcast clouds,-4.45,26.6667,Guest Hôtel
85,Tual,ID,79.54,broken clouds,-5.6667,132.75,Grand Vilia Hotel
88,Taitung,TW,84.47,broken clouds,22.7583,121.1444,Taitung Bali Suites Hotel
89,Atuona,PF,78.55,few clouds,-9.8,-139.0333,Villa Enata
92,Carutapera,BR,75.11,broken clouds,-1.195,-46.02,Lidera
94,Bethel,US,81.18,few clouds,41.3712,-73.414,Courtyard by Marriott Danbury
95,Yarmouth,US,82.45,clear sky,41.7057,-70.2286,Blue Rock Resort
99,Tucupita,VE,73.74,overcast clouds,9.0622,-62.051,Hotel Tucupita Su​ite C.A.
100,Taman,RU,70.12,overcast clouds,45.2117,36.7161,Staryy Gorod G. Taman
102,Palmer,US,78.73,scattered clouds,42.1584,-72.3287,Wedgewood Motel
107,Krasnyy Yar,RU,71.53,clear sky,46.5331,48.3456,Cottege near Ufa
108,Meulaboh,ID,73.44,overcast clouds,4.1363,96.1285,Kost Pria
109,Luanda,AO,71.6,few clouds,-8.8368,13.2343,LANDU MARINEZA LUFUANDU TONI
110,Alugan,PH,82.85,scattered clouds,12.2188,125.4808,JM Lodge
112,Sioux Lookout,CA,80.98,broken clouds,50.1001,-91.917,Knobby's Fly-In Camps
118,Abu Kamal,SY,84.61,clear sky,34.4506,40.9171,محطة التلفاز
122,Alghero,IT,75.29,clear sky,40.5589,8.3181,Villa Las Tronas Hotel & Spa
124,Namatanai,PG,85.44,few clouds,-3.6667,152.4333,Seagulls Inn Namatani
126,Puerto Padre,CU,85.21,scattered clouds,21.195,-76.6028,El Paseo
129,Jamestown,US,71.19,clear sky,42.097,-79.2353,Hampton Inn & Suites Jamestown
132,Caribou,US,72.03,clear sky,46.8606,-68.012,Crown Park Inn Caribou
133,Riyadh,SA,87.94,overcast clouds,24.6877,46.7219,"InterContinental Riyadh, an IHG Hotel"
134,Bubaque,GW,78.82,moderate rain,11.2833,-15.8333,"Casa Dora, Bubaque"
135,Abu Samrah,SY,74.77,clear sky,35.3029,37.1841,
136,Abnub,EG,80.82,clear sky,27.2696,31.1511,Romany Adly Gad
137,Dzilam Gonzalez,MX,79.38,clear sky,21.2833,-88.9333,posadas
138,Bathsheba,BB,77.61,broken clouds,13.2167,-59.5167,Atlantis Hotel
142,Jalu,LY,81.25,clear sky,29.0331,21.5482,صاحبة الفخامة
143,Muroto,JP,80.64,overcast clouds,33.2833,134.15,Oota Ryokan
146,Muisne,EC,73.98,overcast clouds,0.6,-80.0333,Quinta Samay
148,Kavieng,PG,85.82,light rain,-2.5744,150.7967,Nusa Island Retreat
152,Tabou,CI,74.32,clear sky,4.423,-7.3528,hotêl doufoulougou
155,Nabire,ID,83.98,overcast clouds,-3.3667,135.4833,Hotel Nusantara Nabire
160,The Valley,AI,83.1,few clouds,18.217,-63.0578,CeBlue Villas & Beach Resort
163,Nautla,MX,82.44,clear sky,20.2167,-96.7833,Casa Blanca
164,Touros,BR,76.1,clear sky,-5.1989,-35.4608,INN NEW HORIZON
166,Davila,PH,82.38,overcast clouds,18.4726,120.5763,Blue Ridge Beach Resort
173,Avarua,CK,75.25,broken clouds,-21.2078,-159.775,Paradise Inn
176,Victoria,HK,82.45,light rain,22.2855,114.1577,Mini Hotel Central
179,Sao Jose Da Coroa Grande,BR,73.24,scattered clouds,-8.8978,-35.1478,Crôa Mares Hotel
182,Naze,JP,81.52,overcast clouds,28.3667,129.4833,オーベルジュ・アガルイ
184,Labuhan,ID,80.47,few clouds,-6.8844,112.2051,PT PPI Lamongan Tambak C
185,Rabo De Peixe,PT,72.91,broken clouds,37.8,-25.5833,Quinta das Giestas
186,Constantine,DZ,74.61,clear sky,36.365,6.6147,Grand Hotel Cirta
187,Saint Andrews,US,83.98,broken clouds,34.0454,-81.1293,Baymont by Wyndham Columbia Northwest
188,Qui Nhon,VN,86.07,overcast clouds,13.7667,109.2333,Hoang Yen Canary Hotel
191,Moncton,CA,77.49,broken clouds,46.1159,-64.8019,"Crowne Plaza Moncton Downtown, an IHG Hotel"
192,Les Cayes,HT,78.96,scattered clouds,18.2,-73.75,Villa Orphee
193,Zeya,RU,72.66,clear sky,53.75,127.2667,Kapital Inn
194,Lagoa,PT,71.04,broken clouds,39.05,-27.9833,Casa Das Faias
195,Alofi,NU,75.09,scattered clouds,-19.0595,-169.9187,Taloa Heights
196,Sao Gabriel Da Cachoeira,BR,71.92,overcast clouds,-0.1303,-67.0892,Alarne - Área De Lazer Do Alto Rio Negro
198,Banamba,ML,71.06,overcast clouds,13.55,-7.45,Kassela de Banamba
199,Bengkulu,ID,77.67,overcast clouds,-3.8004,102.2655,Grage Hotel Bengkulu
201,Erding,DE,70.23,clear sky,48.306,11.9069,Gasthaus & Hotel zum ERDINGER Weissbräu Erding
203,Sumenep,ID,84.24,clear sky,-7.0167,113.8667,OYO 3271 Homestay Pandian
204,Puerto Escondido,MX,86.83,scattered clouds,15.85,-97.0667,Aldea del Bazar Hotel and Spa
206,Dharchula,IN,70.57,clear sky,29.85,80.5333,Mahara Hotel
207,Hithadhoo,MV,82.09,broken clouds,-0.6,73.0833,Scoop Guest House
208,Cayenne,GF,81.09,clear sky,4.9333,-52.3333,Hôtel Le Dronmi
210,Kumano,JP,72.77,overcast clouds,34.3442,132.5894,ホテル コラソン
212,Brownsville,US,87.91,clear sky,25.9018,-97.4975,University Inn & Suites
216,Ahmadpur East,PK,83.21,clear sky,29.1431,71.2598,Irfan fabrics
217,Hobyo,SO,76.62,clear sky,5.3505,48.5268,Halane Hotel and Restaurent
218,Jhang,PK,74.61,overcast clouds,33.6748,72.6963,Bismallah sentory store
223,Minab,IR,89.1,overcast clouds,27.1467,57.0801,Bam campground
224,Hilton Head Island,US,80.98,clear sky,32.2163,-80.7526,Disney’s Hilton Head Island Resort
225,Solok,ID,71.96,overcast clouds,-0.7918,100.6593,Mami Hotel & Restaurant
227,Chegdomyn,RU,71.51,few clouds,51.1167,133.0167,Gostinitsa Bureya
228,Nanning,CN,79.25,overcast clouds,22.8167,108.3167,Nanning Travelling With Hostel
229,Mackenzie,CA,75.42,clear sky,55.2999,-123.1698,Hilton Shop
230,Uarini,BR,74.66,overcast clouds,-2.99,-65.1083,
232,Pouebo,NC,73.08,few clouds,-20.4,164.5667,RIVÂT LODGE
233,Tura,IN,75.67,overcast clouds,25.5198,90.2201,Hotel RIKMAN Continental
236,Port Moresby,PG,85.42,haze,-9.4431,147.1797,Lamana Hotel (Port Moresby)
237,Yinchuan,CN,75.2,few clouds,38.4681,106.2731,JJ Inns - Yinchuan New Moon Square Branch
239,San Policarpo,PH,82.63,scattered clouds,12.1791,125.5072,Manong Aklan Resort
240,Oistins,BB,77.09,broken clouds,13.0667,-59.5333,Butterfly Beach Hotel
241,Jabinyanah,TN,84.0,clear sky,35.035,10.9081,maison belmabrouk
244,Thompson,CA,78.96,broken clouds,55.7435,-97.8558,Burntwood Hotel
245,Innisfail,AU,71.42,overcast clouds,-17.5333,146.0333,Moondarra Motel
246,Buala,SB,85.06,broken clouds,-8.145,159.5921,Maringe Lagoon Lodge
248,Marsh Harbour,BS,83.1,overcast clouds,26.5412,-77.0636,Abaco Beach Resort
249,Kibala,TD,75.15,few clouds,9.1104,18.3463,hotel safari
251,Buchanan,LR,75.83,overcast clouds,5.8808,-10.0467,Kamaneahn Hotel Inc
257,Santa Cruz De Tenerife,ES,85.59,clear sky,28.4682,-16.2546,Hotel Silken Atlántida Santa Cruz
259,Alyangula,AU,82.27,clear sky,-13.8483,136.4192,Groote Eylandt Lodge
266,Kinkala,CG,72.72,scattered clouds,-4.3614,14.7644,Hotel la Pepeche Kinkala
269,Tabuk,PH,79.43,overcast clouds,17.4189,121.4443,Golden Berries Hotel and Convention
271,Ponta Do Sol,PT,76.12,scattered clouds,32.6667,-17.1,Hotel do Campo
274,Nouadhibou,MR,73.38,clear sky,20.931,-17.0347,El Medina
275,Kottapalli,IN,79.14,overcast clouds,18.4833,79.1,University Guest House
276,Faanui,PF,79.03,clear sky,-16.4833,-151.75,Bora-Bora Pearl Beach Resort & Spa
277,Solnechnyy,RU,74.77,few clouds,50.7214,136.6319,Hotel complex Pastoral
278,Saint-Francois,FR,74.17,clear sky,46.4154,3.9054,Manoir Du Bonheur
281,Sabzevar,IR,71.85,clear sky,36.2126,57.6819,پزشکی قانونی سبزوار
282,Kavaratti,IN,81.23,overcast clouds,10.5669,72.642,Hotels in Lakshadweep Islands
284,Port-Gentil,GA,77.07,overcast clouds,-0.7193,8.7815,Fengshui Residence
286,Diffa,NE,79.11,overcast clouds,13.3154,12.6113,ProDAF/Diffa
289,Isangel,VU,75.31,broken clouds,-19.55,169.2667,Tanna Lodge
290,Pemangkat,ID,80.46,overcast clouds,1.1667,108.9667,Ramah Kost KITA
291,Korla,CN,77.49,overcast clouds,41.7597,86.1469,Gulisitan Hotel
295,Camacari,BR,76.77,broken clouds,-12.6975,-38.3242,Hotel Cambuci
299,Komsomolskiy,UZ,77.72,overcast clouds,40.4272,71.7189,Ikathouse
301,Airai,TL,70.18,clear sky,-8.9266,125.4092,Juvinal Martin
302,Loiza,PR,84.18,few clouds,18.4313,-65.8802,Malibu Beachfront
303,Carbonia,IT,79.75,clear sky,39.1672,8.5222,Lu 'Hotel
304,Huilong,CN,77.04,heavy intensity rain,31.8111,121.655,Hilton Garden Inn Qidong
307,Nouakchott,MR,82.33,broken clouds,18.0858,-15.9785,HOTEL IMAN فندق إيمان
309,Mogadishu,SO,75.58,light rain,2.0371,45.3438,Hotel Juba
310,Trinidad,BO,73.35,clear sky,-14.8333,-64.9,Hotel Piesta
313,Kishi,NG,70.3,broken clouds,9.0833,3.85,New NCCF KISI
317,Rosetta,EG,80.42,clear sky,31.4044,30.4164,Green Valley
318,Lorengau,PG,85.12,broken clouds,-2.0226,147.2712,Lorengau Harbourside Hotel
319,Kovur,IN,79.86,overcast clouds,14.4833,79.9833,Hotel Yesh Park
323,Tiarei,PF,84.22,few clouds,-17.5333,-149.3333,Le Rocher de Tahiti
328,Hami,CN,87.85,overcast clouds,42.8,93.45,Laoyutang Resort
330,Mendi,PG,71.24,broken clouds,-6.1761,143.6513,Kiburu Lodge
331,Gizo,SB,83.17,moderate rain,-8.103,156.8419,Imagination Island
332,Roebourne,AU,76.95,broken clouds,-20.7833,117.1333,Latitude20 Roebourne Village
333,Axim,GH,74.91,clear sky,4.8699,-2.2405,Axim Beach Resort And Spa
335,Kirkuk,IQ,86.16,clear sky,35.4681,44.3922,تل عبدالعزيز
336,Dhana,IN,74.79,broken clouds,23.75,78.85,Cycling Street DS
337,Poum,NC,71.44,clear sky,-20.2333,164.0167,Gîte kajeon
338,Liliani,PK,80.26,broken clouds,32.2065,72.9537,Umer Tea Stall
339,Halifax,CA,72.41,few clouds,44.6453,-63.5724,Hotel Halifax
341,Matara,LK,78.76,overcast clouds,5.9485,80.5353,Amaloh Boutique Resort
342,Ambunti,PG,85.37,broken clouds,-4.2365,142.8448,Ambunti Lodge
345,Lazaro Cardenas,MX,82.53,clear sky,17.9583,-102.2,quinta antigua
346,Filingue,NE,82.85,clear sky,14.3521,3.3168,
348,Dongying,CN,78.96,light rain,37.4564,118.4856,Wanda Realm
349,Port Blair,IN,77.04,drizzle,11.6667,92.75,"Welcomhotel By ITC Hotels, Bay Island, Port Blair"
350,Dongning,CN,75.56,few clouds,44.0622,131.1207,Huayu Hotel
351,San Cristobal,VE,73.58,overcast clouds,7.7669,-72.225,Posada Villaven C.A.
352,Zitsa,GR,78.66,clear sky,39.6943,20.6372,ΒΑΝΤΖΟΣ ΚΛΗΜΑΤΙΑ
353,Alvorada,BR,76.96,clear sky,-12.48,-49.1247,Cristal Plaza Hotel
355,Wanning,CN,86.29,overcast clouds,18.8003,110.3967,Paradise Hotel
359,Road Town,VG,84.29,scattered clouds,18.4167,-64.6167,"ZINGARA 76ft Catamaran, full crew-all included"
361,Pacific Grove,US,85.15,broken clouds,36.6177,-121.9166,Lovers Point Inn
362,Hambantota,LK,80.94,broken clouds,6.1241,81.1185,Bungalow 63
365,Mahon,ES,77.56,few clouds,39.8885,4.2658,ARTIEM Capri
366,Aripuana,BR,77.74,overcast clouds,-9.1667,-60.6333,
367,Bahia Honda,CU,77.25,light rain,22.9036,-83.1592,Casa Gualberto - Deysi
369,Kerema,PG,82.54,overcast clouds,-7.9631,145.7785,Frena Lodge
370,Phayao,TH,71.96,overcast clouds,19.25,100.25,chuthagarden
371,Hoquiam,US,87.93,overcast clouds,46.9809,-123.8893,Econo Lodge Inn & Suites
372,Saint-Georges,GD,82.08,broken clouds,12.0564,-61.7485,Radisson Grenada Beach Resort
373,Lompoc,US,83.79,clear sky,34.6391,-120.4579,"Holiday Inn Express Lompoc, an IHG Hotel"
375,Timizart,DZ,83.57,clear sky,36.8,4.2667,yefssah restaurant
381,Playas,EC,70.02,broken clouds,-2.6333,-80.3833,Hostal Promenade
382,Lasa,IT,70.68,clear sky,46.6166,10.7002,Pension Feldgärtenhof
385,Prainha,BR,72.84,overcast clouds,-1.8,-53.48,Casa Rocha
386,Tanete,ID,84.7,scattered clouds,-3.9443,119.7848,Wisma Tri Multi
388,Umm Lajj,SA,88.86,broken clouds,25.0213,37.2685,Moon light Furnished Units
390,Guerrero Negro,MX,76.77,overcast clouds,27.9769,-114.0611,"Casa Laguna, Bed & Breakfast"
392,Porto Santo,PT,71.98,scattered clouds,33.072,-16.3415,Hotel Porto Santo & Spa
393,Sabang,ID,79.25,overcast clouds,5.8933,95.3214,Hotel Citra
394,Aguacatan,GT,74.5,broken clouds,15.3431,-91.3117,Nuevo Hotel Emperador
396,Pishin,PK,72.5,clear sky,30.5803,66.9961,City Hotel Pishin
400,Najran,SA,81.25,broken clouds,17.4924,44.1277,محمد هادي ال فطيح
401,Acapulco,MX,85.82,broken clouds,16.8634,-99.8901,HS Hotsson Smart Acapulco
402,Eyl,SO,77.34,broken clouds,7.9803,49.8164,Amiin Hotel
412,Japura,ID,77.18,overcast clouds,-0.3167,102.35,Rumah mbah Jamah
413,Salinas,US,85.57,broken clouds,36.6777,-121.6555,Laurel Inn & Conference Center
414,Ravar,IR,78.44,clear sky,31.2656,56.8055,کافی نت و کامپیوترپرشین سیستم
416,Puerto Madero,MX,82.6,broken clouds,14.7208,-92.4215,Hotel La Central
418,Bambanglipuro,ID,79.92,clear sky,-7.95,110.2833,Puri Brata
420,Besikduzu,TR,73.29,overcast clouds,41.052,39.2284,YKT
422,Iracoubo,GF,76.66,broken clouds,5.4802,-53.2011,Le Gîte d’Iracoubo
423,San Jose,US,88.88,haze,37.3394,-121.895,The Westin San Jose
428,Serra,BR,72.86,overcast clouds,-20.1286,-40.3078,Interior do Estado do Espirito Santo
431,Burewala,PK,87.78,clear sky,30.1667,72.65,Siddique asi
432,Tres Picos,MX,81.59,scattered clouds,15.8667,-93.5333,HOTEL TRES PICOS
433,Griffith,US,75.31,clear sky,41.5284,-87.4237,"Motel 6 Hammond, IN - Chicago Area"
434,Along,IN,74.97,overcast clouds,28.1667,94.7667,Hotel West
439,Sibolga,ID,77.32,overcast clouds,1.7427,98.7792,Hotel Syariah CN Darussalam
442,Hervey Bay,AU,71.71,few clouds,-25.2986,152.8535,Shelly Bay Resort
443,Kununurra,AU,82.38,broken clouds,-15.7667,128.7333,Hotel Kununurra
444,Okha,RU,70.03,overcast clouds,53.5739,142.9478,Империя
447,Padang,ID,76.93,overcast clouds,-0.9492,100.3543,Mercure Padang
450,Tecoanapa,MX,82.29,scattered clouds,16.5167,-98.75,Hotel Manglares
453,Elk City,US,84.69,clear sky,35.412,-99.4043,Hampton Inn & Suites Elk City
456,Sao Filipe,CV,74.8,overcast clouds,14.8961,-24.4956,Hotel Xaguate
457,Zhengjiatun,CN,72.39,overcast clouds,43.5064,123.5064,Siping Hexiang Hotel
461,Port Hedland,AU,78.85,overcast clouds,-20.3167,118.5667,The Esplanade Hotel
462,La Ronge,CA,88.05,haze,55.1001,-105.2842,Northland Motor Hotel
463,Pakxan,LA,74.5,light rain,18.3778,103.6601,Kong Kham Pheng Guesthouse
464,Bodden Town,KY,82.4,few clouds,19.2833,-81.25,Will T Place
474,Cabedelo,BR,74.07,clear sky,-6.9811,-34.8339,Hotel Pigalle
477,Praia Da Vitoria,PT,73.65,few clouds,38.7333,-27.0667,Hotel Branco I
478,Bandundu,CD,76.84,broken clouds,-3.3167,17.3667,Coja Color
479,Kloulklubed,PW,82.9,overcast clouds,7.0419,134.2556,Storyboard Beach Resort
480,Hamilton,US,78.75,clear sky,39.1834,-84.5333,Six Acres Bed & Breakfast
483,Oro Valley,US,84.06,overcast clouds,32.3909,-110.9665,"El Conquistador Tucson, A Hilton Resort"
484,Canico,PT,76.12,few clouds,32.6333,-16.85,Quinta Splendida Wellness & Botanical Garden
486,Waingapu,ID,83.71,clear sky,-9.6567,120.2641,Pondok Wisata Elim
487,Kedougou,SN,77.58,moderate rain,12.5579,-12.1743,Relais de Kédougou
488,Boyolangu,ID,78.64,scattered clouds,-8.1181,111.8935,Yos ega cv
490,Biaora,IN,73.49,broken clouds,23.8667,76.9167,SARPANCH MOTEL HOTEL
492,Boa Vista,BR,80.58,scattered clouds,2.8197,-60.6733,Aipana Plaza Hotel
493,Katherine,AU,77.32,overcast clouds,-14.4667,132.2667,Pine Tree Motel
494,Byron Bay,AU,75.06,clear sky,-28.65,153.6167,Backpackers Inn on the Beach
496,Shimoda,JP,80.71,overcast clouds,34.6667,138.95,Shimoda Tokyu Hotel
497,Wattegama,LK,79.72,overcast clouds,6.7989,81.4808,
498,Zhoucheng,CN,77.14,clear sky,35.9122,116.3117,Yingbin Restaurant
499,Jacmel,HT,85.84,clear sky,18.2342,-72.5347,Historic Hotel Florita
500,Teruel,ES,82.36,scattered clouds,40.6667,-0.6667,La Parra
502,Itaituba,BR,72.34,overcast clouds,-4.2761,-55.9836,Hotel Campos
505,Marshfield,US,78.53,clear sky,44.6689,-90.1718,"Holiday Inn Conference Ctr Marshfield, an IHG Hotel"
507,Nishihara,JP,85.66,scattered clouds,26.1842,127.7558,Minshuku Agaihama
511,Barra Dos Coqueiros,BR,73.42,broken clouds,-10.9089,-37.0386,Jangadeiro
512,Manokwari,ID,82.42,moderate rain,-0.8667,134.0833,Swiss Belhotel Manokwari
516,Karratha,AU,76.01,broken clouds,-20.7377,116.8463,ibis Styles Karratha
517,Sibu,MY,73.71,light rain,2.3,111.8167,RH HOTEL (4 Star)
518,Vostok,RU,70.56,broken clouds,46.4856,135.8833,
519,Awbari,LY,80.51,clear sky,26.5921,12.7805,فندق أوباري
520,Rincon,US,82.85,light rain,32.296,-81.2354,Days Inn Rincon
525,Sola,VU,81.27,overcast clouds,-13.8833,167.55,Leumerus Bungalows
526,Maceio,BR,72.84,broken clouds,-9.6658,-35.7353,Poutur Pousada
528,Amarante Do Maranhao,BR,77.99,few clouds,-5.5667,-46.7422,Hotéis Caçulinha
529,Sao Miguel Do Araguaia,BR,77.74,clear sky,-13.275,-50.1628,Hotel Executivo Palace
530,Harper,LR,74.82,clear sky,4.375,-7.7169,Screensaver
533,North Myrtle Beach,US,82.69,clear sky,33.816,-78.68,Avista Resort
535,Palmas,BR,78.67,clear sky,-10.2128,-48.3603,Hotel Lago da Palma
540,San Matias,BO,73.81,clear sky,-16.3667,-58.4,"HOTEL ""SAN JOSE"""
542,Zaoyang,CN,76.75,light rain,32.1272,112.7542,Shanghai Hotel
545,Sakakah,SA,85.57,clear sky,29.9697,40.2064,Fakhamat Al Orjoana Apartment
546,Ewo,CG,79.59,overcast clouds,-0.8725,14.8206,Residence Elonda Ewo
549,Awka,NG,73.13,overcast clouds,6.2101,7.0741,Best Western Meloch Hotel
551,Dataganj,IN,80.89,overcast clouds,28.0333,79.4,Hani Traders
552,Panaba,MX,80.35,clear sky,21.2833,-88.2667,Posada rosario
553,Luorong,CN,79.61,light rain,24.4058,109.6086,荣立大酒店
556,Bac Lieu,VN,82.06,overcast clouds,9.285,105.7244,Khách sạn Sài Gòn Bạc Liêu
557,Guadalajara,MX,78.57,broken clouds,20.6667,-103.3333,Hotel Aranzazú
563,Celestun,MX,82.0,clear sky,20.8667,-90.4,Posada Lilia
564,Masuguru,TZ,72.43,clear sky,-11.3667,38.4167,
568,Scalea,IT,73.35,clear sky,39.813,15.7956,Grand Hotel de Rose
570,Holetown,BB,77.56,overcast clouds,13.1867,-59.6381,The Palms Resort
573,Moindou,NC,75.15,clear sky,-21.6924,165.677,Gite de la RYAWA
574,Bandarban,BD,77.09,overcast clouds,22.1965,92.2262,Hotel Plaza
575,Nanakuli,US,87.75,broken clouds,21.3906,-158.1547,Camp Pālehua
576,Salamiyah,SY,73.08,clear sky,35.0113,37.0532,Gondolas Forum grandchildren and grandparents
577,Casablanca,MA,79.02,few clouds,33.5928,-7.6192,فندق البيت المغربي كازبلانكا
578,Bongor,TD,72.63,overcast clouds,10.2806,15.3722,Oryx Palace
580,Ishigaki,JP,86.13,scattered clouds,24.3448,124.1572,Hotel Peace Land Ishigakijima
583,West Bay,KY,82.47,few clouds,19.3667,-81.4167,Calypso Cove
585,Bougouni,ML,70.0,light rain,11.417,-7.479,Non Stop
587,Puerto Colombia,CO,82.49,overcast clouds,10.9878,-74.9547,Hotel El Emigrante
588,Arona,ES,78.69,scattered clouds,28.0996,-16.681,Paradise Court
590,Palasa,IN,82.78,few clouds,18.7667,84.4167,Balaji tifen & meals veg & non veg hotel
592,Santa Rosa,PH,78.78,overcast clouds,14.3122,121.1114,Erlyn’s Sta Rosa City Home
596,Tukrah,LY,78.78,clear sky,32.5341,20.5791,Lokta restaurant
597,Borogontsy,RU,75.38,light rain,62.6683,131.1683,
598,Lockhart,US,79.72,few clouds,28.6194,-81.4426,Courtyard by Marriott Orlando Altamonte Springs/Maitland
599,Honiara,SB,85.12,broken clouds,-9.4333,159.95,Heritage Park Hotel
600,Kirakira,SB,82.35,overcast clouds,-10.4544,161.9205,SanBiz Lodge
601,Bonanza,NI,73.4,scattered clouds,14.0289,-84.591,Edificio Administrativo HEMCO
604,Jinchang,CN,74.26,overcast clouds,38.4953,102.1739,Mingshihui Jinchang International Hotel
605,Patti,IN,82.47,clear sky,31.2808,74.8572,SOKHI NIWAS
606,Maragogi,BR,72.77,few clouds,-9.0122,-35.2225,Salinas do Maragogi All Inclusive Resort
607,Pochutla,MX,85.05,scattered clouds,15.7432,-96.4661,Hotel Posada San Jose
609,Lincoln,US,82.78,clear sky,40.8,-96.667,Courtyard by Marriott Lincoln Downtown/Haymarket
610,Faridpur,BD,82.4,overcast clouds,23.6,89.8333,Progoti hostel
612,Dawson Creek,CA,76.64,clear sky,55.7666,-120.2362,Peace Villa Motel
614,Yining,CN,73.17,overcast clouds,29.0361,114.5636,Xiushui Hotel
615,Nioro,GM,75.96,overcast clouds,13.35,-15.75,
617,Elk Plain,US,89.92,clear sky,47.0532,-122.3976,Loveland Mobile Estates
618,Dulce Grande,MX,75.54,overcast clouds,23.0,-102.1667,
619,Praia,CV,77.54,few clouds,14.9215,-23.5087,LT Aparthotel
620,Bellview,US,85.75,overcast clouds,30.4616,-87.315,Hospitality Inn Management Co
623,Punta Cardon,VE,82.71,overcast clouds,11.6581,-70.215,Bambuda hotel
629,Kerman,IR,76.48,clear sky,30.2832,57.0788,هتل آپارتمان آسام
630,Puerto Lopez,CO,72.32,overcast clouds,4.0845,-72.956,Resguardo Indigena Maguare
631,Anupgarh,IN,87.31,clear sky,29.1911,73.2086,Kushal & Vishal DTH Kappa Internet Service
633,Howard Springs,AU,83.82,clear sky,-12.497,131.047,buffalo beach hostel
634,Hede,CN,79.2,clear sky,33.7681,120.2517,Vienna 3 Best Hotel Sheyang Jiefang Rd
636,Myanaung,MM,79.75,overcast clouds,18.2833,95.3167,Taung Hlay Khar
639,Lapithos,CY,84.92,clear sky,35.3375,33.1792,Gillham Luxury Boutique & Vineyard
641,Mindelo,CV,76.55,scattered clouds,16.8901,-24.9804,Hotel Gaudi
642,Bayji,IQ,86.7,clear sky,34.9311,43.487,مروان /عدنان
643,Urucara,BR,74.53,overcast clouds,-2.5364,-57.76,Pousada Maria Bonita
645,Pangoa,PE,70.97,overcast clouds,-12.1167,-73.0,
647,Kahului,US,86.97,scattered clouds,20.8947,-156.47,Maui Seaside Hotel
648,Natal,BR,75.85,clear sky,-5.795,-35.2094,Villa Park Hotel | Natal
649,Vanimo,PG,85.05,overcast clouds,-2.6741,141.3028,Vahmoneh Lodge Vanimo
650,Freeport,US,84.25,overcast clouds,40.6576,-73.5832,The Freeport Inn and Marina
651,Bonavista,CA,71.6,broken clouds,48.6499,-53.1147,Abbott's Bed & Breakfast
652,Cockburn Town,TC,80.56,scattered clouds,21.4612,-71.1419,Osprey Beach Hotel
653,Dwarka,IN,80.35,overcast clouds,22.2394,68.9678,Hotel Narayan Avezika Comfort
655,Umm Kaddadah,SD,75.24,overcast clouds,13.6017,26.6876,
656,Chara,RU,70.0,clear sky,56.9064,118.2631,
657,Mazarron,ES,79.88,few clouds,37.5992,-1.3149,Apartamentos Oasis de las Palmeras
658,Rapu-Rapu,PH,83.03,broken clouds,13.1866,124.1256,Seaview Dormitel
659,Sagua La Grande,CU,76.19,overcast clouds,22.8067,-80.0756,Hotel Telégrafo
660,Pemba,MZ,70.5,few clouds,-12.974,40.5178,Guesthouse Samotina
661,Ler,SS,70.02,overcast clouds,8.3018,30.1418,
663,Cangzhou,CN,76.46,overcast clouds,38.3167,116.8667,Jinji Express Hotel
665,Mayo,US,84.94,few clouds,38.8876,-76.5119,Resorts Resource Group International
667,Shache,CN,71.2,overcast clouds,38.4167,77.2406,Delong Hotel
668,Bay Roberts,CA,71.35,broken clouds,47.5999,-53.2648,Stonewall Inn
671,Sendhwa,IN,73.96,overcast clouds,21.6833,75.1,Hotel Shagun Garden
673,Lianzhou,CN,79.5,overcast clouds,24.7811,112.3825,Qingcheng Tourism Industry
674,Manggar,ID,79.88,overcast clouds,-2.8833,108.2667,Guest Hotel
675,Vila Velha,BR,73.35,overcast clouds,-20.3297,-40.2925,Quality Suites Vila Velha
679,Sorong,ID,81.59,broken clouds,-0.8833,131.25,waigo splash hotel
681,Coahuayana,MX,78.28,scattered clouds,18.7333,-103.6833,El rranchito michuacan de ocampos
684,Amuntai,ID,79.7,broken clouds,-2.4177,115.2494,Hotel Balqis
688,Bida,NG,73.51,overcast clouds,9.0833,6.0167,Royal Suite
689,Bristol,US,82.6,clear sky,41.8334,-71.1662,
690,Nakhon Sawan,TH,75.97,overcast clouds,15.7,100.0833,The Paradiso JK Design Hotel Nakhon Sawan.
